$GNGSA,A,3,01,10,32,08,11,24,18,27,28,21,22,,1.36,0.76,1.13*10.
$GNGSA,A,3,83,,,,,,,,,,,,1.36,0.76,1.13*11.
$GPGSV,4,1,13,01,17,299,19,08,48,253,28,10,66,073,18,11,32,300,29*7C.
$GPGSV,4,2,13,14,37,177,18,15,00,039,,18,38,078,21,21,10,126,22*73.
$GPGSV,4,3,13,22,12,256,34,24,19,056,21,27,34,205,20,28,11,331,28*71.
$GPGSV,4,4,13,32,55,158,29*4D.
$GLGSV,3,1,10,66,29,049,,67,84,011,,68,36,234,19,74,02,328,23*62.
$GLGSV,3,2,10,75,15,015,16,76,12,064,,81,11,159,,82,58,181,*6B.
$GLGSV,3,3,10,83,56,310,30,84,04,330,*65.
5GNGLL,5306.15309,N,04458.58837,E,201147.00,A,A*74.
$GNRMC,201148.00,A,5306.15296,N,04458.58844,E,0.132,,250517,,,A*65.
$GNVTG,,T,,M,0.132,N,0.245,K,A*3E.
$GNGGA,201148.00,5306.15296,N,04458.58844,E,1,12,0.79,156.4,M,2.3,M,,*77.
$GNGSA,A,3,01,10,32,08,11,24,18,27,28,21,22,,1.43,0.79,1.19*17.
$GNGSA,A,3,83,,,,,,,,,,,,1.43,0.79,1.19*16.
$GPGSV,4,1,13,01,17,299,19,08,48,253,27,10,66,073,17,11,32,300,29*7C.
$GPGSV,4,2,13,14,37,177,19,15,00,039,,18,38,078,21,21,10,126,22*72.
$GPGSV,4,3,13,22,12,256,34,24,19,056,22,27,34,205,20,28,11,331,28*72.
$GPGSV,4,4,13,32,55,158,29*4D.
$GLGSV,3,1,10,66,29,049,,67,84,014,,68,36,234,19,74,02,328,23*67.
$GLGSV,3,2,10,75,15,015,17,76,12,064,,81,11,159,,82,58,181,*6A.
$GLGSV,3,3,10,83,56,310,30,84,04,330,*65.
$GNGLL,5306.15296,N,04458.58844,E,201148.00,A,A*78.
$GNRMC,201149.00,A,5306.15300,N,04458.58808,E,0.140,,250517,,,A*67.
$GNVTG,,T,,M,0.140,N,0.259,K,A*36.
$GNGGA,201149.00,5306.15300,N,04458.58808,E,1,12,0.76,156.7,M,2.3,M,,*7C.
$GNGSA,A,3,01,10,32,08,11,24,18,27,28,21,22,,1.36,0.76,1.13*10.
$GNGSA,A,3,83,,,,,,,,,,,,1.36,0.76,1.13*11.
$GPGSV,4,1,13,01,17,299,20,08,48,253,27,10,66,073,14,11,32,300,30*7D.
$GPGSV,4,2,13,14,37,177,19,15,00,039,,18,38,078,20,21,10,126,22*73.
$GPGSV,4,3,13,22,12,256,34,24,19,056,22,27,34,205,20,28,11,331,28*72.
$GPGSV,4,4,13,32,55,158,30*45.
$GLGSV,3,1,10,66,29,049,,67,84,014,,68,36,235,20,74,02,328,22*6D.
$GLGSV,3,2,10,75,15,015,18,76,12,064,,81,11,159,,82,58,181,*65.
$GLGSV,3,3,10,83,56,310,30,84,04,330,*65.
$GNGLL,5306.15300,N,04458.58808,E,201149.00,A,A*7F.
$GNTXT,01,01,01,MSAMB,$GNTXT,01,01,01,MSAMB,$GNTXT,01,01,01,MSAMB,$GNRMC,201150.00,A,5306.15281,N,04458.58821,E,0.293,,250517,,,A*61.
$GNVTG,,T,,M,0.293,N,0.543,K,A*37.
$GNGGA,201150.00,5306.15281,N,04458.58821,E,1,11,0.80,156.8,M,2.3,M,,*72.
$GNGSA,A,3,01,10,08,11,24,18,27,28,21,22,,,1.62,0.80,1.41*1E.
$GNGSA,A,3,83,,,,,,,,,,,,1.62,0.80,1.41*1E.
$GPGSV,4,1,13,01,17,299,20,08,48,253,26,10,66,073,13,11,32,300,30*7B.
$GPGSV,4,2,13,14,37,177,20,15,00,039,,18,38,078,20,21,10,126,22*79.
$GPGSV,4,3,13,22,12,256,34,24,19,056,23,27,34,205,20,28,11,331,29*72.
$GPGSV,4,4,13,32,55,158,30*45.
$GLGSV,3,1,10,66,29,049,,67,84,014,,68,36,235,20,74,02,328,22*6D.
$GLGSV,3,2,10,75,15,015,18,76,12,064,,81,11,159,,82,58,181,*65.
$GLGSV,3,3,10,83,56,310,30,84,04,330,*65.
$GNGLL,5306.15281,N,04458.58821,E,201150.00,A,A*74.
$GNTXT,01,01,01,MSAMB,$GNRMC,201151.00,A,5306.15267,N,04458.58828,E,0.288,,250517,,,A*6B.
$GNVTG,,T,,M,0.288,N,0.533,K,A*3A.
$GNGGA,201151.00,5306.15267,N,04458.58828,E,1,12,0.80,157.1,M,2.3,M,,*79.
$GNGSA,A,3,01,10,32,08,11,24,18,27,28,21,22,,1.62,0.80,1.41*1F.
$GNGSA,A,3,83,,,,,,,,,,,,1.62,0.80,1.41*1E.
$GPGSV,4,1,13,01,17,299,21,08,48,253,27,10,66,073,11,11,32,300,30*79.
$GPGSV,4,2,13,14,37,177,20,15,00,039,,18,38,078,20,21,10,126,22*79.
$GPGSV,4,3,13,22,12,256,34,24,19,056,22,27,34,205,20,28,11,331,28*72.
$GPGSV,4,4,13,32,55,158,31*44.
$GLGSV,3,1,10,66,29,049,,67,84,014,,68,36,235,20,74,02,328,22*6D.
$GLGSV,3,2,10,75,15,015,18,76,12,064,,81,11,159,,82,58,181,17*63.
$GLGSV,3,3,10,83,56,310,30,84,04,330,*65.
$GNGLL,5306.15267,N,04458.58828,E,201151.00,A,A*74.
$GNRMC,201152.00,A,5306.15264,N,04458.58834,E,0.276,,250517,,,A*67.
$GNVTG,,T,,M,0.276,N,0.510,K,A*3A.
$GNGGA,201152.00,5306.15264,N,04458.58834,E,1,11,0.78,157.4,M,2.3,M,,*75.
$GNGSA,A,3,01,32,08,11,24,18,27,28,21,22,,,1.49,0.78,1.28*1F.
$GNGSA,A,3,83,,,,,,,,,,,,1.49,0.78,1.28*1F.
$GPGSV,4,1,13,01,17,299,20,08,48,253,27,10,66,073,10,11,32,300,31*78.
$GPGSV,4,2,13,14,37,177,20,15,00,039,,18,38,078,20,21,10,126,22*79.
$GPGSV,4,3,13,22,12,256,33,24,19,056,22,27,34,205,21,28,11,331,29*75.
$GPGSV,4,4,13,32,55,158,31*44.
$GLGSV,3,1,10,66,29,049,,67,84,014,,68,36,235,19,74,02,328,22*67.
$GLGSV,3,2,10,75,15,015,18,76,12,064,,81,11,159,,82,58,181,*65.
$GLGSV,3,3,10,83,56,310,30,84,04,330,*65.
$GNGLL,5306.15264,N,04458.58834,E,201152.00,A,A*79.
$GNRMC,201153.00,A,5306.15263,N,04458.58827,E,0.168,,250517,,,A*6F.
$GNVTG,,T,,M,0.168,N,0.312,K,A*32.
$GNGGA,201153.00,5306.15263,N,04458.58827,E,1,12,0.76,157.4,M,2.3,M,,*7C.
$GNGSA,A,3,01,10,32,08,11,24,18,27,28,21,22,,1.36,0.76,1.13*10.
$GNGSA,A,3,83,,,,,,,,,,,,1.36,0.76,1.13*11.
$GPGSV,4,1,13,01,17,299,21,08,48,253,28,10,66,073,13,11,32,300,31*75.
$GPGSV,4,2,13,14,37,177,20,15,00,039,,18,38,078,19,21,10,126,22*73.
$GPGSV,4,3,13,22,12,256,34,24,19,056,22,27,34,205,21,28,11,331,28*73.
$GPGSV,4,4,13,32,55,158,31*44.
$GLGSV,3,1,10,66,29,049,,67,84,014,17,68,36,235,19,74,02,328,22*61.
$GLGSV,3,2,10,75,15,015,18,76,12,064,,81,11,159,,82,58,181,*65.
$GLGSV,3,3,10,83,56,310,30,84,04,330,*65.
$GNGLL,5306.15263,N,04458.58827,E,201153.00,A,A*7D.
$GNRMC,201154.00,A,5306.15251,N,04458.58852,E,0.233,,250517,,,A*66.
$GNVTG,,T,,M,0.233,N,0.432,K,A*3A.
$GNGGA,201154.00,5306.15251,N,04458.58852,E,1,12,0.80,157.6,M,2.3,M,,*73.
$GNGSA,A,3,01,10,32,08,11,24,18,27,28,21,22,,1.62,0.80,1.41*1F.
$GNGSA,A,3,83,,,,,,,,,,,,1.62,0.80,1.41*1E.
$GPGSV,4,1,13,01,17,299,21,08,48,253,29,10,66,073,13,11,32,300,31*74.
$GPGSV,4,2,13,14,37,177,20,15,00,039,,18,38,078,19,21,10,126,22*73.
$GPGSV,4,3,13,22,12,256,34,24,19,056,22,27,34,205,22,28,11,331,28*70.
$GPGSV,4,4,13,32,55,158,31*44.
$GLGSV,3,1,10,66,29,049,23,67,84,014,16,68,36,235,18,74,02,328,21*63.
$GLGSV,3,2,10,75,15,015,17,76,12,064,,81,11,159,,82,58,181,*6A.
$GLGSV,3,3,10,83,56,310,29,84,04,330,*6D.
$GNGLL,5306.15251,N,04458.58852,E,201154.00,A,A*79.
$GNTXT,01,01,01,MSAMB,$GNRMC,201155.00,A,5306.15249,N,04458.58874,E,0.371,,250517,,,A*6D.
$GNVTG,,T,,M,0.371,N,0.687,K,A*31.
$GNGGA,201155.00,5306.15249,N,04458.58874,E,1,12,0.78,157.5,M,2.3,M,,*7B.
$GNGSA,A,3,01,10,32,08,11,24,18,27,28,21,22,,1.49,0.78,1.28*1E.
$GNGSA,A,3,83,,,,,,,,,,,,1.49,0.78,1.28*1F.
$GPGSV,4,1,13,01,17,299,21,08,48,253,30,10,66,073,14,11,32,300,31*7B.
$GPGSV,4,2,13,14,37,177,19,15,00,039,,18,38,078,18,21,10,126,21*7B.
$GPGSV,4,3,13,22,12,256,33,24,19,056,22,27,34,205,22,28,11,331,29*76.
$GPGSV,4,4,13,32,55,158,31*44.
$GLGSV,3,1,10,66,29,049,,67,84,014,15,68,36,235,17,74,01,327,22*61.
$GLGSV,3,2,10,75,15,015,18,76,12,064,,81,11,159,,82,58,181,*65.
$GLGSV,3,3,10,83,56,310,29,84,04,330,*6D.
$GNGLL,5306.15249,N,04458.58874,E,201155.00,A,A*75.
$GNTXT,01,01,01,MSAMB,$GNTXT,01,01,01,MSAMB,$GNRMC,201156.00,A,5306.15249,N,04458.58895,E,0.385,,250517,,,A*6A.
$GNVTG,,T,,M,0.385,N,0.712,K,A*37.
$GNGGA,201156.00,5306.15249,N,04458.58895,E,1,12,0.79,157.6,M,2.3,M,,*75.
$GNGSA,A,3,01,10,32,08,11,24,18,27,28,21,22,,1.43,0.79,1.19*17.
$GNGSA,A,3,83,,,,,,,,,,,,1.43,0.79,1.19*16.
$GPGSV,4,1,13,01,17,299,21,08,48,253,31,10,66,073,16,11,32,300,32*7B.
$GPGSV,4,2,13,14,37,177,19,15,00,039,,18,38,078,18,21,10,126,21*7B.
$GPGSV,4,3,13,22,12,256,34,24,19,056,22,27,34,205,22,28,11,331,29*71.
$GPGSV,4,4,13,32,55,158,31*44.
$GLGSV,3,1,10,66,29,049,,67,84,014,15,68,36,235,17,74,01,327,21*62.
$GLGSV,3,2,10,75,15,014,18,76,12,064,,81,11,159,,82,58,181,*64.
$GLGSV,3,3,10,83,56,310,30,84,04,330,*65.
$GNGLL,5306.15249,N,04458.58895,E,201156.00,A,A*79.
$GNTXT,01,01,01,MSAMB,$GNRMC,201157.00,A,5306.15261,N,04458.58900,E,0.196,,250517,,,A*6C.
$GNVTG,,T,,M,0.196,N,0.363,K,A*35.
$GNGGA,201157.00,5306.15261,N,04458.58900,E,1,12,0.86,157.6,M,2.3,M,,*73.
$GNGSA,A,3,01,10,32,08,11,24,18,27,28,21,22,,1.38,0.86,1.08*1B.
$GNGSA,A,3,83,67,,,,,,,,,,,1.38,0.86,1.08*1B.
$GPGSV,4,1,13,01,17,299,21,08,48,253,32,10,66,073,16,11,32,300,32*78.
$GPGSV,4,2,13,14,37,177,19,15,00,039,,18,38,078,18,21,10,126,21*7B.
$GPGSV,4,3,13,22,12,256,33,24,19,056,22,27,34,205,22,28,11,331,29*76.
$GPGSV,4,4,13,32,55,158,30*45.
$GLGSV,3,1,10,66,29,049,19,67,84,014,17,68,36,235,17,74,01,327,21*68.
$GLGSV,3,2,10,75,15,014,18,76,13,063,,81,11,159,,82,58,181,*62.
$GLGSV,3,3,10,83,56,310,29,84,04,330,*6D.
$GNGLL,5306.15261,N,04458.58900,E,201157.00,A,A*7F.
$GNRMC,201158.00,A,5306.15256,N,04458.58915,E,0.051,,250517,,,A*69.
$GNVTG,,T,,M,0.051,N,0.094,K,A*34.
$GNGGA,201158.00,5306.15256,N,04458.58915,E,1,12,0.79,157.3,M,2.3,M,,*79.
$GNGSA,A,3,01,10,32,08,11,24,18,27,28,21,22,,1.30,0.79,1.03*18.
$GNGSA,A,3,83,67,,,,,,,,,,,1.30,0.79,1.03*18.
$GPGSV,4,1,13,01,17,299,22,08,48,253,32,10,66,073,17,11,32,300,32*7A.
$GPGSV,4,2,13,14,37,177,20,15,00,039,,18,38,078,18,21,10,126,20*70.
$GPGSV,4,3,13,22,12,256,33,24,19,056,22,27,34,205,22,28,11,331,29*76.
$GPGSV,4,4,13,32,55,158,30*45.
$GLGSV,3,1,10,66,29,049,,67,84,014,16,68,36,235,16,74,01,327,21*60.
$GLGSV,3,2,10,75,15,014,18,76,13,063,,81,11,159,,82,58,181,06*64.
$GLGSV,3,3,10,83,56,310,29,84,04,330,*6D.
$GNGLL,5306.15256,N,04458.58915,E,201158.00,A,A*70.
$GNRMC,201159.00,A,5306.15268,N,04458.58922,E,0.032,,250517,,,A*64.
$GNVTG,,T,,M,0.032,N,0.060,K,A*3A.
$GNGGA,201159.00,5306.15268,N,04458.58922,E,1,12,0.86,157.2,M,2.3,M,,*70.
$GNGSA,A,3,01,10,32,08,11,24,18,27,28,21,22,,1.38,0.86,1.08*1B.
$GNGSA,A,3,83,67,,,,,,,,,,,1.38,0.86,1.08*1B.
$GPGSV,4,1,13,01,17,299,23,08,48,253,32,10,66,073,17,11,32,300,32*7B.
$GPGSV,4,2,13,14,37,177,20,15,00,039,,18,38,078,17,21,10,126,20*7F.
$GPGSV,4,3,13,22,12,256,33,24,19,056,22,27,34,205,23,28,11,331,29*77.
$GPGSV,4,4,13,32,55,158,30*45.
$GLGSV,3,1,10,66,29,049,,67,84,014,16,68,36,235,16,74,01,327,20*61.
$GLGSV,3,2,10,75,15,014,18,76,13,063,,81,11,159,,82,58,181,*62.
$GLGSV,3,3,10,83,56,310,30,84,04,330,*65.
$GNGLL,5306.15268,N,04458.58922,E,201159.00,A,A*78.
$GNRMC,201200.00,A,5306.15267,N,04458.58930,E,0.078,,250517,,,A*69.
$GNVTG,,T,,M,0.078,N,0.144,K,A*33.
$GNGGA,201200.00,5306.15267,N,04458.58930,E,1,12,0.79,157.0,M,2.3,M,,*71.
$GNGSA,A,3,01,10,32,08,11,24,18,27,28,21,22,,1.30,0.79,1.03*18.
$GNGSA,A,3,83,67,,,,,,,,,,,1.30,0.79,1.03*18.
$GPGSV,4,1,13,01,17,299,22,08,48,253,33,10,66,073,16,11,32,300,32*7A.
$GPGSV,4,2,13,14,37,177,20,15,00,039,,18,38,078,16,21,10,126,20*7E.
$GPGSV,4,3,13,22,12,256,33,24,19,056,22,27,34,205,22,28,11,331,30*7E.
$GPGSV,4,4,13,32,55,158,30*45.
$GLGSV,3,1,10,66,29,049,,67,84,014,17,68,36,235,17,74,01,327,21*60.
$GLGSV,3,2,10,75,15,014,18,76,13,063,,81,11,159,,82,58,181,*62.
$GLGSV,3,3,10,83,56,310,31,84,04,330,*64.
$GNGLL,5306.15267,N,04458.58930,E,201200.00,A,A*7B.
$GNRMC,201201.00,A,5306.15263,N,04458.58957,E,0.099,,250517,,,A*62.
$GNVTG,,T,,M,0.099,N,0.184,K,A*30.
$GNGGA,201201.00,5306.15263,N,04458.58957,E,1,12,0.80,157.0,M,2.3,M,,*73.
$GNGSA,A,3,01,32,08,11,24,18,27,28,21,22,,,1.38,0.80,1.13*16.
$GNGSA,A,3,83,67,,,,,,,,,,,1.38,0.80,1.13*17.
$GPGSV,4,1,13,01,17,299,21,08,48,253,33,10,66,073,,11,32,300,33*7F.
$GPGSV,4,2,13,14,37,177,20,15,00,039,,18,38,078,15,21,10,126,20*7D.
$GPGSV,4,3,13,22,12,256,34,24,19,056,22,27,34,205,23,28,11,331,30*78.
$GPGSV,4,4,13,32,55,158,30*45.
$GLGSV,3,1,10,66,29,049,,67,84,014,18,68,36,235,16,74,01,327,21*6E.
$GLGSV,3,2,10,75,15,014,19,76,13,063,,81,11,159,,82,58,181,*63.
$GLGSV,3,3,10,83,56,310,31,84,04,330,*64.
$GNGLL,5306.15263,N,04458.58957,E,201201.00,A,A*7F.
$GNTXT,01,01,01,MSAMB,$GNTXT,01,01,01,MSAMB,$GNTXT,01,01,01,MSAMB,$GNRMC,201202.00,A,5306.15260,N,04458.58962,E,0.070,,250517,,,A*63.
$GNVTG,,T,,M,0.070,N,0.129,K,A*30.
$GNGGA,201202.00,5306.15260,N,04458.58962,E,1,11,0.80,156.9,M,2.3,M,,*7E.
$GNGSA,A,3,01,08,11,24,18,27,28,21,22,,,,1.38,0.80,1.13*17.
$GNGSA,A,3,83,67,,,,,,,,,,,1.38,0.80,1.13*17.
$GPGSV,4,1,13,01,17,299,20,08,48,253,33,10,66,073,19,11,32,300,33*76.
$GPGSV,4,2,13,14,37,177,20,15,00,039,,18,38,078,14,21,10,126,20*7C.
$GPGSV,4,3,13,22,12,256,33,24,19,056,23,27,34,205,24,28,11,331,30*79.
$GPGSV,4,4,13,32,55,158,30*45.
$GLGSV,3,1,10,66,29,049,,67,84,014,18,68,36,235,15,74,01,327,21*6D.
$GLGSV,3,2,10,75,15,014,19,76,13,063,,81,10,160,,82,58,181,*68.
$GLGSV,3,3,10,83,56,310,26,84,04,330,*62.
$GNGLL,5306.15260,N,04458.58962,E,201202.00,A,A*79.
$GNRMC,201203.00,A,5306.15257,N,04458.58993,E,0.179,,250517,,,A*60.
$GNVTG,,T,,M,0.179,N,0.331,K,A*33.
$GNGGA,201203.00,5306.15257,N,04458.58993,E,1,12,0.80,156.7,M,2.3,M,,*78.
$GNGSA,A,3,01,32,08,11,24,18,27,28,21,22,,,1.38,0.80,1.13*16.
$GNGSA,A,3,83,67,,,,,,,,,,,1.38,0.80,1.13*17.
$GPGSV,4,1,13,01,17,299,20,08,48,253,34,10,66,073,18,11,32,300,33*70.
$GPGSV,4,2,13,14,37,177,20,15,00,039,,18,38,078,15,21,10,126,21*7C.
$GPGSV,4,3,13,22,12,256,33,24,19,056,23,27,34,205,25,28,11,331,30*78.
$GPGSV,4,4,13,32,55,158,31*44.
$GLGSV,3,1,10,66,29,049,,67,84,014,20,68,36,235,15,74,01,327,21*66.
$GLGSV,3,2,10,75,15,014,20,76,13,063,,81,10,160,,82,57,181,*6D.
$GLGSV,3,3,10,83,56,310,30,84,04,330,*65.
$GNGLL,5306.15257,N,04458.58993,E,201203.00,A,A*72.
$GNRMC,201204.00,A,5306.15267,N,04458.58992,E,0.261,,250517,,,A*6F.
$GNVTG,,T,,M,0.261,N,0.483,K,A*37.
$GNGGA,201204.00,5306.15267,N,04458.58992,E,1,12,0.81,156.5,M,2.3,M,,*7E.
$GNGSA,A,3,01,32,08,11,24,18,27,28,21,22,,,1.36,0.81,1.09*12.
$GNGSA,A,3,83,67,,,,,,,,,,,1.36,0.81,1.09*13.
$GPGSV,4,1,13,01,17,299,21,08,48,253,34,10,66,073,17,11,32,300,33*7E.
$GPGSV,4,2,13,14,37,177,19,15,00,039,,18,38,078,16,21,10,126,21*75.
$GPGSV,4,3,13,22,12,256,33,24,19,056,23,27,34,205,26,28,11,331,30*7B.
$GPGSV,4,4,13,32,55,158,31*44.
$GLGSV,3,1,10,66,29,049,,67,84,014,19,68,36,235,15,74,01,327,21*6C.
$GLGSV,3,2,10,75,15,014,20,76,13,063,,81,10,160,,82,57,181,*6D.
$GLGSV,3,3,10,83,56,310,31,84,04,330,*64.
$GNGLL,5306.15267,N,04458.58992,E,201204.00,A,A*77.
$GNRMC,201205.00,A,5306.15269,N,04458.59008,E,0.305,,250517,,,A*68.
$GNVTG,,T,,M,0.305,N,0.564,K,A*3C.
$GNGGA,201205.00,5306.15269,N,04458.59008,E,1,12,0.80,156.4,M,2.3,M,,*7A.
$GNGSA,A,3,01,10,32,08,11,24,18,27,28,21,22,,1.38,0.80,1.13*17.
$GNGSA,A,3,83,67,,,,,,,,,,,1.38,0.80,1.13*17.
$GPGSV,4,1,13,01,17,299,21,08,48,253,34,10,66,073,17,11,32,300,33*7E.
$GPGSV,4,2,13,14,37,177,18,15,00,039,,18,38,078,16,21,10,126,21*74.
$GPGSV,4,3,13,22,12,256,34,24,19,056,23,27,34,205,26,28,11,331,30*7C.
$GPGSV,4,4,13,32,55,158,30*45.
$GLGSV,3,1,10,66,29,049,,67,84,014,20,68,36,235,16,74,01,327,21*65.
$GLGSV,3,2,10,75,15,014,20,76,13,063,,81,10,160,,82,57,181,*6D.
$GLGSV,3,3,10,83,56,310,31,84,05,330,*65.
$GNGLL,5306.15269,N,04458.59008,E,201205.00,A,A*73.
$GNRMC,201206.00,A,5306.15285,N,04458.58991,E,0.085,,250517,,,A*6A.
$GNVTG,,T,,M,0.085,N,0.157,K,A*33.
$GNGGA,201206.00,5306.15285,N,04458.58991,E,1,12,0.77,156.3,M,2.3,M,,*7C.
$GNGSA,A,3,01,10,32,08,11,24,18,27,28,21,22,,1.32,0.77,1.08*1F.
$GNGSA,A,3,83,67,,,,,,,,,,,1.32,0.77,1.08*1F.
$GPGSV,4,1,13,01,17,299,22,08,48,253,34,10,66,073,18,11,32,300,32*73.
$GPGSV,4,2,13,14,37,177,19,15,00,039,,18,38,078,17,21,10,126,20*75.
$GPGSV,4,3,13,22,12,256,33,24,19,056,23,27,34,205,26,28,11,331,30*7B.
$GPGSV,4,4,13,32,55,158,31*44.
$GLGSV,3,1,10,66,29,049,19,67,84,014,19,68,36,235,16,74,01,327,21*67.
$GLGSV,3,2,10,75,15,014,20,76,13,063,,81,10,160,,82,57,181,18*64.
$GLGSV,3,3,10,83,56,310,30,84,05,330,*64.
$GNGLL,5306.15285,N,04458.58991,E,201206.00,A,A*7A.
$GNTXT,01,01,01,MSAMB,$GNRMC,201207.00,A,5306.15291,N,04458.58998,E,0.126,,250517,,,A*6F.
$GNVTG,,T,,M,0.126,N,0.234,K,A*3D.
$GNGGA,201207.00,5306.15291,N,04458.58998,E,1,12,0.80,156.3,M,2.3,M,,*79.
$GNGSA,A,3,01,10,32,08,11,24,18,27,28,21,22,,1.38,0.80,1.13*17.
$GNGSA,A,3,83,67,,,,,,,,,,,1.38,0.80,1.13*17.
$GPGSV,4,1,13,01,17,299,21,08,48,253,34,10,66,073,20,11,32,300,33*7A.
$GPGSV,4,2,13,14,37,177,20,15,00,039,,18,38,078,17,21,10,126,20*7F.
$GPGSV,4,3,13,22,12,256,34,24,19,056,23,27,34,205,26,28,11,331,30*7C.
$GPGSV,4,4,13,32,55,158,30*45.
$GLGSV,3,1,10,66,29,049,18,67,84,014,20,68,36,235,,74,01,327,21*6B.
$GLGSV,3,2,10,75,15,014,21,76,13,063,,81,10,160,,82,57,181,*6C.
$GLGSV,3,3,10,83,56,310,28,84,05,330,*6D.
$GNGLL,5306.15291,N,04458.58998,E,201207.00,A,A*77.
$GNTXT,01,01,01,MSAMB,$GNTXT,01,01,01,MSAMB,$GNRMC,201208.00,A,5306.15305,N,04458.58978,E,0.098,,250517,,,A*66.
$GNVTG,,T,,M,0.098,N,0.182,K,A*37.
$GNGGA,201208.00,5306.15305,N,04458.58978,E,1,12,0.79,155.9,M,2.3,M,,*7B.
$GNGSA,A,3,01,10,32,08,11,24,18,27,28,21,22,,1.28,0.79,1.00*12.
$GNGSA,A,3,83,67,,,,,,,,,,,1.28,0.79,1.00*12.
$GPGSV,4,1,13,01,17,299,21,08,48,253,34,10,66,073,21,11,32,300,33*7B.
$GPGSV,4,2,13,14,37,177,20,15,00,039,,18,38,078,17,21,10,126,20*7F.
$GPGSV,4,3,13,22,12,256,34,24,19,056,23,27,34,205,26,28,11,331,31*7D.
$GPGSV,4,4,13,32,55,158,30*45.
$GLGSV,3,1,10,66,29,049,18,67,84,014,21,68,36,235,,74,01,327,21*6A.
$GLGSV,3,2,10,75,15,014,21,76,13,063,,81,10,160,,82,57,181,*6C.
$GLGSV,3,3,10,83,56,310,30,84,05,330,*64.
$GNGLL,5306.15305,N,04458.58978,E,201208.00,A,A*7A.
$GNRMC,201209.00,A,5306.15310,N,04458.58968,E,0.120,,250517,,,A*60.
$GNVTG,,T,,M,0.120,N,0.222,K,A*3C.
$GNGGA,201209.00,5306.15310,N,04458.58968,E,1,12,0.82,155.7,M,2.3,M,,*75.
$GNGSA,A,3,01,10,32,08,11,24,18,27,28,21,22,,1.32,0.82,1.04*19.
$GNGSA,A,3,83,67,,,,,,,,,,,1.32,0.82,1.04*19.
$GPGSV,4,1,13,01,17,299,22,08,48,253,34,10,66,073,21,11,32,300,33*78.
$GPGSV,4,2,13,14,37,177,19,15,00,039,,18,38,078,19,21,10,126,20*7B.
$GPGSV,4,3,13,22,12,256,34,24,19,056,23,27,34,205,25,28,11,331,30*7F.
$GPGSV,4,4,13,32,55,158,30*45.
$GLGSV,3,1,10,66,29,049,18,67,84,014,21,68,36,235,,74,01,327,21*6A.
$GLGSV,3,2,10,75,15,014,21,76,13,063,,81,10,160,,82,57,181,*6C.
$GLGSV,3,3,10,83,56,310,30,84,05,330,*64.
$GNGLL,5306.15310,N,04458.58968,E,201209.00,A,A*7E.
$GNRMC,201210.00,A,5306.15326,N,04458.58942,E,0.343,,250517,,,A*62.
$GNVTG,,T,,M,0.343,N,0.636,K,A*3A.
$GNGGA,201210.00,5306.15326,N,04458.58942,E,1,12,0.76,155.4,M,2.3,M,,*78.
$GNGSA,A,3,01,10,32,08,11,24,18,27,28,21,22,,1.26,0.76,1.00*13.
$GNGSA,A,3,83,67,,,,,,,,,,,1.26,0.76,1.00*13.
$GPGSV,4,1,13,01,17,300,23,08,48,253,34,10,66,073,22,11,32,300,33*7B.
$GPGSV,4,2,13,14,37,177,19,15,00,039,,18,38,078,18,21,10,126,20*7A.
$GPGSV,4,3,13,22,12,256,34,24,19,056,22,27,34,205,25,28,11,331,31*7F.
$GPGSV,4,4,13,32,55,158,29*4D.
$GLGSV,3,1,10,66,29,049,17,67,84,014,21,68,36,235,,74,01,327,21*65.
$GLGSV,3,2,10,75,15,014,20,76,13,063,,81,10,160,,82,57,181,17*6B.
$GLGSV,3,3,10,83,56,310,31,84,05,330,*65.
$GNGLL,5306.15326,N,04458.58942,E,201210.00,A,A*7B.
$GNTXT,01,01,01,MSAMB,$GNRMC,201211.00,A,5306.15329,N,04458.58951,E,0.311,,250517,,,A*69.
$GNVTG,,T,,M,0.311,N,0.577,K,A*3B.
$GNGGA,201211.00,5306.15329,N,04458.58951,E,1,12,0.79,155.3,M,2.3,M,,*7C.
$GNGSA,A,3,01,10,32,08,11,24,18,27,28,21,22,,1.30,0.79,1.03*18.
$GNGSA,A,3,83,67,,,,,,,,,,,1.30,0.79,1.03*18.
$GPGSV,4,1,13,01,17,300,23,08,48,253,33,10,66,073,22,11,32,300,33*7C.
$GPGSV,4,2,13,14,37,177,19,15,00,039,,18,38,078,19,21,10,126,19*71.
$GPGSV,4,3,13,22,12,256,33,24,19,056,21,27,34,205,25,28,11,331,31*7B.
$GPGSV,4,4,13,32,55,158,29*4D.
$GLGSV,3,1,10,66,29,049,16,67,84,014,21,68,36,235,,74,01,327,22*67.
$GLGSV,3,2,10,75,15,014,21,76,13,063,,81,10,160,,82,57,181,*6C.
$GLGSV,3,3,10,83,56,310,31,84,05,330,*65.
$GNGLL,5306.15329,N,04458.58951,E,201211.00,A,A*77.
$GNRMC,201212.00,A,5306.15337,N,04458.58962,E,0.080,,250517,,,A*6E.
$GNVTG,,T,,M,0.080,N,0.148,K,A*38.
$GNGGA,201212.00,5306.15337,N,04458.58962,E,1,12,0.76,154.8,M,2.3,M,,*75.
$GNGSA,A,3,01,10,32,08,11,24,18,27,28,21,22,,1.26,0.76,1.00*13.
$GNGSA,A,3,83,67,,,,,,,,,,,1.26,0.76,1.00*13.
$GPGSV,4,1,13,01,17,300,23,08,48,253,33,10,66,073,22,11,32,300,33*7C.
$GPGSV,4,2,13,14,37,177,19,15,00,039,,18,38,078,20,21,10,126,20*71.
$GPGSV,4,3,13,22,12,256,33,24,19,056,22,27,34,205,23,28,11,331,31*7E.
$GPGSV,4,4,13,32,55,158,28*4C.
$GLGSV,3,1,10,66,29,049,16,67,84,014,21,68,36,235,,74,01,327,21*64.
$GLGSV,3,2,10,75,15,014,21,76,13,063,,81,10,160,,82,57,181,*6C.
$GLGSV,3,3,10,83,56,310,31,84,05,330,*65.
$GNGLL,5306.15337,N,04458.58962,E,201212.00,A,A*7B.
$GNRMC,201213.00,A,5306.15338,N,04458.58976,E,0.106,,250517,,,A*6A.
$GNVTG,,T,,M,0.106,N,0.197,K,A*35.
$GNGGA,201213.00,5306.15338,N,04458.58976,E,1,12,0.79,154.5,M,2.3,M,,*7C.
$GNGSA,A,3,01,10,32,08,11,24,18,27,28,21,22,,1.30,0.79,1.03*18.
$GNGSA,A,3,83,67,,,,,,,,,,,1.30,0.79,1.03*18.
$GPGSV,4,1,13,01,17,300,22,08,48,253,32,10,66,073,22,11,32,300,34*7B.
$GPGSV,4,2,13,14,37,177,19,15,00,039,,18,38,078,21,21,10,126,20*70.
$GPGSV,4,3,13,22,12,256,33,24,19,056,21,27,34,205,22,28,11,331,31*7C.
$GPGSV,4,4,13,32,55,158,28*4C.
$GLGSV,3,1,10,66,29,049,16,67,84,014,20,68,36,235,,74,01,327,22*66.
$GLGSV,3,2,10,75,15,014,22,76,13,063,,81,10,160,,82,57,181,*6F.
$GLGSV,3,3,10,83,56,310,32,84,05,330,*66.
$GNGLL,5306.15338,N,04458.58976,E,201213.00,A,A*70.
$GNTXT,01,01,01,MSAMB,$GNTXT,01,01,01,MSAMB,$GNTXT,01,01,01,MSAMB,$GNRMC,201214.00,A,5306.15338,N,04458.58975,E,0.323,,250517,,,A*6B.
$GNVTG,,T,,M,0.323,N,0.598,K,A*3B.
$GNGGA,201214.00,5306.15338,N,04458.58975,E,1,12,0.79,154.2,M,2.3,M,,*7F.
$GNGSA,A,3,01,10,08,11,24,18,27,28,21,22,,,1.30,0.79,1.03*19.
$GNGSA,A,3,83,67,,,,,,,,,,,1.30,0.79,1.03*18.
$GPGSV,4,1,13,01,17,300,22,08,48,253,32,10,66,073,20,11,32,300,34*79.
$GPGSV,4,2,13,14,37,177,19,15,00,039,,18,38,078,21,21,10,126,20*70.
$GPGSV,4,3,13,22,12,256,33,24,19,056,21,27,34,205,21,28,11,331,31*7F.
$GPGSV,4,4,13,32,55,158,27*43.
$GLGSV,3,1,10,66,29,049,17,67,84,014,20,68,36,235,,74,01,327,20*65.
$GLGSV,3,2,10,75,15,014,22,76,13,063,,81,10,160,,82,57,181,*6F.
$GLGSV,3,3,10,83,56,310,31,84,05,330,*65.
$GNGLL,5306.15338,N,04458.58975,E,201214.00,A,A*74.
$GNTXT,01,01,01,MSAMB,$GNRMC,201215.00,A,5306.15343,N,04458.58966,E,0.085,,250517,,,A*6B.
$GNVTG,,T,,M,0.085,N,0.158,K,A*3C.
$GNGGA,201215.00,5306.15343,N,04458.58966,E,1,12,0.79,154.3,M,2.3,M,,*71.
$GNGSA,A,3,01,10,32,08,11,24,18,27,28,21,22,,1.30,0.79,1.03*18.
$GNGSA,A,3,83,67,,,,,,,,,,,1.30,0.79,1.03*18.
$GPGSV,4,1,13,01,17,300,23,08,48,253,31,10,66,073,18,11,32,300,33*77.
$GPGSV,4,2,13,14,37,177,19,15,00,039,,18,38,078,22,21,10,126,21*72.
$GPGSV,4,3,13,22,12,256,33,24,19,056,22,27,34,205,20,28,11,331,31*7D.
$GPGSV,4,4,13,32,55,158,26*42.
$GLGSV,3,1,10,66,29,049,17,67,84,014,20,68,36,235,,74,01,327,20*65.
$GLGSV,3,2,10,75,15,014,22,76,13,063,,81,10,160,,82,57,181,18*66.
$GLGSV,3,3,10,83,56,310,31,84,05,330,*65.
$GNGLL,5306.15343,N,04458.58966,E,201215.00,A,A*7B.
$GNRMC,201216.00,A,5306.15357,N,04458.58929,E,0.202,,250517,,,A*6B.
$GNVTG,,T,,M,0.202,N,0.375,K,A*3C.
$GNGGA,201216.00,5306.15357,N,04458.58929,E,1,12,0.76,154.4,M,2.3,M,,*74.
$GNGSA,A,3,01,10,32,08,11,24,18,27,28,21,22,,1.26,0.76,1.00*13.
$GNGSA,A,3,83,67,,,,,,,,,,,1.26,0.76,1.00*13.
$GPGSV,4,1,13,01,17,300,23,08,48,252,30,10,66,073,16,11,32,300,34*7E.
$GPGSV,4,2,13,14,37,177,19,15,00,039,,18,38,078,22,21,10,126,21*72.
$GPGSV,4,3,13,22,12,256,33,24,19,056,22,27,34,205,20,28,11,331,31*7D.
$GPGSV,4,4,13,32,55,158,26*42.
$GLGSV,3,1,10,66,29,049,16,67,84,014,20,68,36,235,,74,01,327,20*64.
$GLGSV,3,2,10,75,15,014,22,76,13,063,,81,10,160,,82,57,181,*6F.
$GLGSV,3,3,10,83,56,310,32,84,05,330,*66.
$GNGLL,5306.15357,N,04458.58929,E,201216.00,A,A*76.
$GNRMC,201217.00,A,5306.15357,N,04458.58916,E,0.050,,250517,,,A*63.
$GNVTG,,T,,M,0.050,N,0.092,K,A*33.
$GNGGA,201217.00,5306.15357,N,04458.58916,E,1,12,0.79,154.3,M,2.3,M,,*71.
$GNGSA,A,3,01,10,32,08,11,24,18,27,28,21,22,,1.30,0.79,1.03*18.
$GNGSA,A,3,83,67,,,,,,,,,,,1.30,0.79,1.03*18.
$GPGSV,4,1,13,01,17,300,24,08,48,252,30,10,66,073,16,11,32,300,34*79.
$GPGSV,4,2,13,14,37,177,19,15,00,039,,18,38,078,23,21,10,126,20*72.
$GPGSV,4,3,13,22,12,256,33,24,19,056,22,27,34,205,18,28,11,331,32*75.
$GPGSV,4,4,13,32,55,158,27*43.
$GLGSV,3,1,10,66,29,049,17,67,84,014,20,68,36,235,,74,01,327,20*65.
$GLGSV,3,2,10,75,15,014,22,76,13,063,,81,10,160,,82,57,181,*6F.
$GLGSV,3,3,10,83,56,310,32,84,05,330,*66.
$GNGLL,5306.15357,N,04458.58916,E,201217.00,A,A*7B.
$GNRMC,201218.00,A,5306.15355,N,04458.58926,E,0.203,,250517,,,A*69.
$GNVTG,,T,,M,0.203,N,0.375,K,A*3D.
$GNGGA,201218.00,5306.15355,N,04458.58926,E,1,12,0.76,154.2,M,2.3,M,,*71.
$GNGSA,A,3,01,10,32,08,11,24,18,27,28,21,22,,1.26,0.76,1.00*13.
$GNGSA,A,3,83,67,,,,,,,,,,,1.26,0.76,1.00*13.
$GPGSV,4,1,13,01,17,300,25,08,48,252,29,10,66,073,17,11,32,300,34*71.
$GPGSV,4,2,13,14,37,177,19,15,00,039,,18,38,078,24,21,10,126,21*74.
$GPGSV,4,3,13,22,12,256,33,24,19,056,23,27,34,205,18,28,11,331,32*74.
$GPGSV,4,4,13,32,55,158,28*4C.
$GLGSV,3,1,10,66,29,049,17,67,84,014,20,68,36,235,,74,01,327,21*64.
$GLGSV,3,2,10,75,15,014,22,76,13,063,,81,10,160,,82,57,181,*6F.
$GLGSV,3,3,10,83,56,310,31,84,05,330,*65.
$GNGLL,5306.15355,N,04458.58926,E,201218.00,A,A*75.
$GNTXT,01,01,01,MSAMB,$GNRMC,201219.00,A,5306.15350,N,04458.58925,E,0.077,,250517,,,A*6F.
$GNVTG,,T,,M,0.077,N,0.142,K,A*3A.
$GNGGA,201219.00,5306.15350,N,04458.58925,E,1,12,0.79,154.4,M,2.3,M,,*7F.
$GNGSA,A,3,01,10,32,08,11,24,18,27,28,21,22,,1.30,0.79,1.03*18.
$GNGSA,A,3,83,67,,,,,,,,,,,1.30,0.79,1.03*18.
$GPGSV,4,1,13,01,17,300,26,08,48,252,28,10,66,073,18,11,32,300,34*7C.
$GPGSV,4,2,13,14,37,177,20,15,00,039,,18,38,078,24,21,10,126,21*7E.
$GPGSV,4,3,13,22,12,256,33,24,19,056,23,27,34,205,16,28,11,331,32*7A.
$GPGSV,4,4,13,32,55,158,28*4C.
$GLGSV,3,1,10,66,29,049,18,67,84,014,21,68,36,235,,74,01,327,21*6A.
$GLGSV,3,2,10,75,15,014,22,76,13,063,,81,10,160,,82,57,181,*6F.
$GLGSV,3,3,10,83,56,310,31,84,05,330,*65.
$GNGLL,5306.15350,N,04458.58925,E,201219.00,A,A*72.
$GNTXT,01,01,01,MSAMB,$GNTXT,01,01,01,MSAMB,$GNRMC,201220.00,A,5306.15358,N,04458.58887,E,0.071,,250517,,,A*62.
$GNVTG,,T,,M,0.071,N,0.131,K,A*38.
$GNGGA,201220.00,5306.15358,N,04458.58887,E,1,12,0.76,154.4,M,2.3,M,,*7B.
$GNGSA,A,3,01,10,32,08,11,24,18,27,28,21,22,,1.26,0.76,1.00*13.
$GNGSA,A,3,83,67,,,,,,,,,,,1.26,0.76,1.00*13.
$GPGSV,4,1,13,01,17,300,26,08,48,252,27,10,66,073,20,11,32,300,34*78.
$GPGSV,4,2,13,14,37,177,20,15,00,039,,18,38,078,24,21,10,126,20*7F.
$GPGSV,4,3,13,22,12,256,33,24,19,056,23,27,34,205,16,28,11,331,33*7B.
$GPGSV,4,4,13,32,55,158,30*45.
$GLGSV,3,1,10,66,29,049,17,67,84,014,21,68,36,235,,74,01,327,21*65.
$GLGSV,3,2,10,75,15,014,22,76,13,063,,81,10,160,,82,57,181,08*67.
$GLGSV,3,3,10,83,56,310,31,84,05,330,*65.
$GNGLL,5306.15358,N,04458.58887,E,201220.00,A,A*79.
$GNRMC,201221.00,A,5306.15350,N,04458.58892,E,0.246,,250517,,,A*69.
$GNVTG,,T,,M,0.246,N,0.455,K,A*39.
$GNGGA,201221.00,5306.15350,N,04458.58892,E,1,12,0.79,154.5,M,2.3,M,,*78.
$GNGSA,A,3,01,10,32,08,11,24,18,27,28,21,22,,1.30,0.79,1.03*18.
$GNGSA,A,3,83,67,,,,,,,,,,,1.30,0.79,1.03*18.
$GPGSV,4,1,13,01,17,300,26,08,48,252,26,10,66,073,21,11,32,300,33*7F.
$GPGSV,4,2,13,14,37,177,19,15,00,039,,18,38,078,24,21,10,126,20*75.
$GPGSV,4,3,13,22,12,256,33,24,19,056,24,27,34,205,15,28,11,331,32*7E.
$GPGSV,4,4,13,32,55,158,31*44.
$GLGSV,3,1,10,66,29,049,,67,84,014,21,68,36,235,,74,01,327,20*62.
$GLGSV,3,2,10,75,15,014,23,76,13,063,,81,10,160,,82,57,181,*6E.
$GLGSV,3,3,10,83,56,310,31,84,05,330,*65.
$GNGLL,5306.15350,N,04458.58892,E,201221.00,A,A*74.
$GNRMC,201222.00,A,5306.15349,N,04458.58877,E,0.105,,250517,,,A*6D.
$GNVTG,,T,,M,0.105,N,0.194,K,A*35.
$GNGGA,201222.00,5306.15349,N,04458.58877,E,1,12,0.86,154.8,M,2.3,M,,*75.
$GNGSA,A,3,01,10,32,08,11,24,18,27,28,21,22,,1.38,0.86,1.08*1B.
$GNGSA,A,3,83,67,,,,,,,,,,,1.38,0.86,1.08*1B.
$GPGSV,4,1,13,01,17,300,26,08,48,252,26,10,66,073,21,11,32,300,33*7F.
$GPGSV,4,2,13,14,38,177,19,15,00,039,,18,38,078,24,21,10,126,19*70.
$GPGSV,4,3,13,22,12,256,33,24,19,056,25,27,34,205,15,28,11,331,32*7F.
$GPGSV,4,4,13,32,55,158,31*44.
$GLGSV,3,1,10,66,29,049,,67,84,014,21,68,36,235,,74,01,327,20*62.
$GLGSV,3,2,10,75,15,014,23,76,13,063,,81,10,160,,82,57,181,*6E.
$GLGSV,3,3,10,83,56,310,31,84,05,330,*65.
$GNGLL,5306.15349,N,04458.58877,E,201222.00,A,A*74.
$GNTXT,01,01,01,MSAMB,$GNRMC,201223.00,A,5306.15341,N,04458.58865,E,0.076,,250517,,,A*62.
$GNVTG,,T,,M,0.076,N,0.141,K,A*38.
$GNGGA,201223.00,5306.15341,N,04458.58865,E,1,12,0.92,155.2,M,2.3,M,,*71.
$GNGSA,A,3,01,10,32,08,11,24,18,27,28,21,22,,1.46,0.92,1.13*1D.
$GNGSA,A,3,83,67,,,,,,,,,,,1.46,0.92,1.13*1D.
$GPGSV,3,1,12,01,17,300,27,08,48,252,26,10,66,073,22,11,32,300,33*7B.
$GPGSV,3,2,12,14,38,177,20,18,38,078,25,21,10,126,19,22,12,256,33*71.
$GPGSV,3,3,12,24,19,056,24,27,34,205,15,28,11,331,32,32,55,158,32*76.
$GLGSV,3,1,10,66,29,049,,67,84,014,21,68,36,235,,74,01,327,20*62.
$GLGSV,3,2,10,75,15,014,24,76,13,063,,81,10,160,,82,57,181,*69.
$GLGSV,3,3,10,83,56,310,31,84,05,330,*65.
$GNGLL,5306.15341,N,04458.58865,E,201223.00,A,A*7E.
$GNRMC,201224.00,A,5306.15339,N,04458.58842,E,0.108,,250517,,,A*67.
$GNVTG,,T,,M,0.108,N,0.200,K,A*36.
$GNGGA,201224.00,5306.15339,N,04458.58842,E,1,12,0.86,155.5,M,2.3,M,,*7E.
$GNGSA,A,3,01,10,32,08,11,24,18,27,28,21,22,,1.38,0.86,1.08*1B.
$GNGSA,A,3,83,67,,,,,,,,,,,1.38,0.86,1.08*1B.
$GPGSV,3,1,12,01,17,300,28,08,48,252,25,10,66,073,22,11,32,300,33*77.
$GPGSV,3,2,12,14,38,177,20,18,38,078,25,21,10,126,19,22,12,256,33*71.
$GPGSV,3,3,12,24,19,056,23,27,34,205,15,28,11,331,33,32,55,158,32*70.
$GLGSV,3,1,10,66,29,049,,67,84,014,20,68,36,235,,74,01,327,20*63.
$GLGSV,3,2,10,75,15,014,24,76,13,063,,81,10,160,,82,57,181,06*6F.
$GLGSV,3,3,10,83,56,310,32,84,05,330,*66.
$GNGLL,5306.15339,N,04458.58842,E,201224.00,A,A*73.
$GNRMC,201225.00,A,5306.15326,N,04458.58838,E,0.217,,250517,,,A*68.
$GNVTG,,T,,M,0.217,N,0.403,K,A*3E.
$GNGGA,201225.00,5306.15326,N,04458.58838,E,1,12,0.92,155.9,M,2.3,M,,*75.
$GNGSA,A,3,01,10,32,08,11,24,18,27,28,21,22,,1.46,0.92,1.13*1D.
$GNGSA,A,3,83,67,,,,,,,,,,,1.46,0.92,1.13*1D.
$GPGSV,3,1,12,01,17,300,28,08,48,252,25,10,66,073,21,11,32,300,33*74.
$GPGSV,3,2,12,14,38,177,21,18,38,078,25,21,10,126,19,22,12,256,32*71.
$GPGSV,3,3,12,24,19,056,23,27,34,205,15,28,11,331,32,32,55,158,32*71.
$GLGSV,3,1,10,66,29,049,,67,84,014,21,68,36,235,,74,01,327,20*62.
$GLGSV,3,2,10,75,15,014,24,76,13,063,,81,10,160,,82,57,181,*69.
$GLGSV,3,3,10,83,56,310,32,84,05,330,*66.
$GNGLL,5306.15326,N,04458.58838,E,201225.00,A,A*71.
$GNTXT,01,01,01,MSAMB,$GNTXT,01,01,01,MSAMB,$GNTXT,01,01,01,MSAMB,$GNTXT,01,01,01,MSAMB,$GNRMC,201226.00,A,5306.15317,N,04458.58824,E,0.274,,250517,,,A*61.
$GNVTG,,T,,M,0.274,N,0.507,K,A*3E.
$GNGGA,201226.00,5306.15317,N,04458.58824,E,1,12,0.92,156.2,M,2.3,M,,*71.
$GNGSA,A,3,01,10,08,11,24,18,27,28,21,22,,,1.46,0.92,1.13*1C.
$GNGSA,A,3,83,67,,,,,,,,,,,1.46,0.92,1.13*1D.
$GPGSV,3,1,12,01,17,300,28,08,48,252,25,10,66,073,20,11,32,300,33*75.
$GPGSV,3,2,12,14,38,177,21,18,38,078,25,21,10,126,19,22,12,256,32*71.
$GPGSV,3,3,12,24,19,056,22,27,34,205,15,28,11,331,33,32,55,158,33*70.
$GLGSV,3,1,10,66,29,049,,67,84,014,21,68,36,235,,74,01,327,20*62.
$GLGSV,3,2,10,75,15,014,24,76,13,063,,81,10,160,,82,57,181,*69.
$GLGSV,3,3,10,83,56,310,32,84,05,330,*66.
$GNGLL,5306.15317,N,04458.58824,E,201226.00,A,A*7D.
$GNTXT,01,01,01,MSAMB,$GNRMC,201227.00,A,5306.15306,N,04458.58820,E,0.358,,250517,,,A*6B.
$GNVTG,,T,,M,0.358,N,0.664,K,A*37.
$GNGGA,201227.00,5306.15306,N,04458.58820,E,1,12,0.92,156.7,M,2.3,M,,*71.
$GNGSA,A,3,01,10,32,08,11,24,18,27,28,21,22,,1.46,0.92,1.13*1D.
$GNGSA,A,3,83,67,,,,,,,,,,,1.46,0.92,1.13*1D.
$GPGSV,3,1,12,01,17,300,28,08,48,252,26,10,66,073,20,11,32,300,32*77.
$GPGSV,3,2,12,14,38,177,21,18,38,078,25,21,10,126,19,22,12,256,32*71.
$GPGSV,3,3,12,24,19,056,21,27,34,205,15,28,11,331,33,32,55,158,33*73.
$GLGSV,3,1,10,66,29,049,20,67,84,014,22,68,36,235,,74,01,327,20*63.
$GLGSV,3,2,10,75,15,014,24,76,13,063,,81,10,160,,82,57,181,*69.
$GLGSV,3,3,10,83,56,310,32,84,05,330,*66.
$GNGLL,5306.15306,N,04458.58820,E,201227.00,A,A*78.
$GNRMC,201228.00,A,5306.15305,N,04458.58805,E,0.433,,250517,,,A*6A.
$GNVTG,,T,,M,0.433,N,0.801,K,A*30.
$GNGGA,201228.00,5306.15305,N,04458.58805,E,1,12,0.86,156.9,M,2.3,M,,*71.
$GNGSA,A,3,01,10,32,08,11,24,18,27,28,21,22,,1.38,0.86,1.08*1B.
$GNGSA,A,3,83,67,,,,,,,,,,,1.38,0.86,1.08*1B.
$GPGSV,3,1,12,01,17,300,28,08,48,252,26,10,66,073,18,11,32,300,32*7C.
$GPGSV,3,2,12,14,38,177,21,18,38,078,25,21,10,126,19,22,12,256,33*70.
$GPGSV,3,3,12,24,19,056,21,27,34,205,15,28,11,331,33,32,55,158,33*73.
$GLGSV,3,1,10,66,29,049,,67,84,014,22,68,36,235,,74,01,327,20*61.
$GLGSV,3,2,10,75,15,014,24,76,13,063,,81,10,160,,82,57,181,*69.
$GLGSV,3,3,10,83,56,310,32,84,05,330,*66.
$GNGLL,5306.15305,N,04458.58805,E,201228.00,A,A*73.
$GNTXT,01,01,01,MSAMB,$GNRMC,201229.00,A,5306.15304,N,04458.58783,E,0.182,,250517,,,A*64.
$GNVTG,,T,,M,0.182,N,0.337,K,A*31.
$GNGGA,201229.00,5306.15304,N,04458.58783,E,1,12,0.92,157.4,M,2.3,M,,*79.
$GNGSA,A,3,01,10,32,08,11,24,18,27,28,21,22,,1.46,0.92,1.13*1D.
$GNGSA,A,3,83,67,,,,,,,,,,,1.46,0.92,1.13*1D.
$GPGSV,3,1,12,01,17,300,29,08,48,252,27,10,66,073,16,11,32,300,32*72.
$GPGSV,3,2,12,14,38,177,21,18,38,078,25,21,09,126,20,22,12,256,33*72.
$GPGSV,3,3,12,24,19,056,21,27,34,205,14,28,11,331,32,32,55,158,33*73.
$GLGSV,3,1,10,66,29,049,,67,84,014,23,68,36,235,,74,01,327,20*60.
$GLGSV,3,2,10,75,15,014,24,76,13,063,,81,10,160,,82,57,181,*69.
$GLGSV,3,3,10,83,56,310,32,84,05,330,*66.
$GNGLL,5306.15304,N,04458.58783,E,201229.00,A,A*72.
$GNRMC,201230.00,A,5306.15308,N,04458.58756,E,0.101,,250517,,,A*63.
$GNVTG,,T,,M,0.101,N,0.187,K,A*33.
$GNGGA,201230.00,5306.15308,N,04458.58756,E,1,12,0.86,157.5,M,2.3,M,,*71.
$GNGSA,A,3,01,10,32,08,11,24,18,27,28,21,22,,1.38,0.86,1.08*1B.
$GNGSA,A,3,83,67,,,,,,,,,,,1.38,0.86,1.08*1B.
$GPGSV,3,1,12,01,17,300,29,08,48,252,28,10,66,073,11,11,32,300,32*7A.
$GPGSV,3,2,12,14,38,177,21,18,38,078,25,21,09,126,20,22,12,256,33*72.
$GPGSV,3,3,12,24,19,056,22,27,34,205,15,28,11,331,32,32,55,158,33*71.
$GLGSV,3,1,10,66,29,049,,67,84,014,22,68,36,235,,74,01,327,*63.
$GLGSV,3,2,10,75,15,014,23,76,13,063,,81,10,160,,82,57,181,*6E.
$GLGSV,3,3,10,83,56,310,32,84,05,330,*66.
$GNGLL,5306.15308,N,04458.58756,E,201230.00,A,A*7E.
$GNTXT,01,01,01,MSAMB,$GNRMC,201231.00,A,5306.15310,N,04458.58746,E,0.131,,250517,,,A*69.
$GNVTG,,T,,M,0.131,N,0.242,K,A*3A.
$GNGGA,201231.00,5306.15310,N,04458.58746,E,1,12,0.92,157.8,M,2.3,M,,*70.
$GNGSA,A,3,01,32,08,11,24,18,27,28,21,22,,,1.46,0.92,1.13*1C.
$GNGSA,A,3,83,67,,,,,,,,,,,1.46,0.92,1.13*1D.
$GPGSV,3,1,12,01,17,300,29,08,48,252,30,10,66,073,09,11,32,300,32*7A.
$GPGSV,3,2,12,14,38,177,21,18,38,078,25,21,09,126,21,22,12,256,33*73.
$GPGSV,3,3,12,24,19,056,21,27,34,205,16,28,11,331,32,32,55,158,32*70.
$GLGSV,3,1,10,66,29,049,,67,84,014,22,68,36,235,,74,01,327,21*60.
$GLGSV,3,2,10,75,15,014,23,76,13,063,,81,10,160,,82,57,181,*6E.
$GLGSV,3,3,10,83,56,310,32,84,05,330,*66.
$GNGLL,5306.15310,N,04458.58746,E,201231.00,A,A*77.
$GNTXT,01,01,01,MSAMB,$GNTXT,01,01,01,MSAMB,$GNTXT,01,01,01,MSAMB,$GNRMC,201232.00,A,5306.15325,N,04458.58712,E,0.091,,250517,,,A*66.
$GNVTG,,T,,M,0.091,N,0.169,K,A*3B.
$GNGGA,201232.00,5306.15325,N,04458.58712,E,1,12,0.86,157.8,M,2.3,M,,*71.
$GNGSA,A,3,01,32,08,11,24,18,27,28,21,22,,,1.38,0.86,1.08*1A.
$GNGSA,A,3,83,67,,,,,,,,,,,1.38,0.86,1.08*1B.
$GPGSV,3,1,12,01,17,300,29,08,48,252,31,10,66,073,07,11,32,300,31*76.
$GPGSV,3,2,12,14,38,177,21,18,38,078,25,21,09,126,20,22,12,256,33*72.
$GPGSV,3,3,12,24,19,056,21,27,34,205,18,28,11,331,33,32,55,158,31*7C.
$GLGSV,3,1,10,66,29,049,,67,84,014,22,68,36,235,,74,01,327,21*60.
$GLGSV,3,2,10,75,15,014,22,76,13,063,,81,10,160,,82,57,181,06*69.
$GLGSV,3,3,10,83,56,310,32,84,05,330,*66.
$GNGLL,5306.15325,N,04458.58712,E,201232.00,A,A*73.
$GNTXT,01,01,01,MSAMB,$GNRMC,201233.00,A,5306.15336,N,04458.58693,E,0.143,,250517,,,A*63.
$GNVTG,,T,,M,0.143,N,0.265,K,A*3A.
$GNGGA,201233.00,5306.15336,N,04458.58693,E,1,12,0.92,158.0,M,2.3,M,,*78.
$GNGSA,A,3,01,32,08,11,24,18,27,28,21,22,,,1.46,0.92,1.13*1C.
$GNGSA,A,3,83,67,,,,,,,,,,,1.46,0.92,1.13*1D.
$GPGSV,3,1,12,01,17,300,29,08,48,252,32,10,66,073,07,11,32,300,31*75.
$GPGSV,3,2,12,14,38,177,20,18,38,078,25,21,09,126,20,22,12,256,33*73.
$GPGSV,3,3,12,24,19,056,22,27,34,205,18,28,11,331,33,32,55,158,30*7E.
$GLGSV,3,1,10,66,29,049,,67,84,014,23,68,36,235,,74,01,327,20*60.
$GLGSV,3,2,10,75,15,014,22,76,13,063,,81,10,160,,82,57,181,*6F.
$GLGSV,3,3,10,83,56,310,32,84,05,330,*66.
$GNGLL,5306.15336,N,04458.58693,E,201233.00,A,A*78.
$GNRMC,201234.00,A,5306.15349,N,04458.58669,E,0.115,,250517,,,A*6A.
$GNVTG,,T,,M,0.115,N,0.213,K,A*38.
$GNGGA,201234.00,5306.15349,N,04458.58669,E,1,12,0.86,158.0,M,2.3,M,,*77.
$GNGSA,A,3,01,32,08,11,24,18,27,28,21,22,,,1.38,0.86,1.08*1A.
$GNGSA,A,3,83,67,,,,,,,,,,,1.38,0.86,1.08*1B.
$GPGSV,3,1,12,01,17,300,29,08,48,252,33,10,66,073,07,11,32,300,32*77.
$GPGSV,3,2,12,14,38,177,21,18,38,078,25,21,09,126,19,22,12,256,33*78.
$GPGSV,3,3,12,24,19,056,22,27,34,205,18,28,11,331,33,32,55,158,29*76.
$GLGSV,3,1,10,66,29,049,,67,84,014,24,68,36,235,,74,01,327,20*67.
$GLGSV,3,2,10,75,15,014,22,76,13,063,,81,10,160,,82,57,181,19*67.
$GLGSV,3,3,10,83,56,310,32,84,05,330,*66.
$GNGLL,5306.15349,N,04458.58669,E,201234.00,A,A*72.
$GNTXT,01,01,01,MSAMB,$GNRMC,201235.00,A,5306.15364,N,04458.58665,E,0.061,,250517,,,A*6A.
$GNVTG,,T,,M,0.061,N,0.114,K,A*3E.
$GNGGA,201235.00,5306.15364,N,04458.58665,E,1,12,0.80,158.2,M,2.3,M,,*71.
$GNGSA,A,3,01,32,08,11,24,18,27,28,21,22,,,1.38,0.80,1.13*16.
$GNGSA,A,3,83,67,,,,,,,,,,,1.38,0.80,1.13*17.
$GPGSV,3,1,12,01,17,300,29,08,48,252,33,10,66,073,06,11,32,300,32*76.
$GPGSV,3,2,12,14,38,177,21,18,38,078,25,21,09,126,19,22,12,256,33*78.
$GPGSV,3,3,12,24,19,056,22,27,34,205,17,28,11,331,32,32,55,158,28*79.
$GLGSV,3,1,10,66,29,049,,67,84,014,24,68,36,235,,74,01,327,20*67.
$GLGSV,3,2,10,75,15,014,22,76,13,063,,81,10,160,,82,57,181,18*66.
$GLGSV,3,3,10,83,56,310,33,84,05,330,*67.
$GNGLL,5306.15364,N,04458.58665,E,201235.00,A,A*70.
$GNRMC,201236.00,A,5306.15373,N,04458.58664,E,0.072,,250517,,,A*6C.
$GNVTG,,T,,M,0.072,N,0.134,K,A*3E.
$GNGGA,201236.00,5306.15373,N,04458.58664,E,1,12,0.80,158.1,M,2.3,M,,*76.
$GNGSA,A,3,01,32,08,11,24,18,27,28,21,22,,,1.38,0.80,1.13*16.
$GNGSA,A,3,83,67,,,,,,,,,,,1.38,0.80,1.13*17.
$GPGSV,3,1,12,01,17,300,29,08,48,252,33,10,66,073,06,11,32,300,32*76.
$GPGSV,3,2,12,14,38,177,20,18,38,078,25,21,09,126,18,22,12,256,33*78.
$GPGSV,3,3,12,24,19,056,22,27,34,205,16,28,11,331,32,32,55,158,26*76.
$GLGSV,3,1,10,66,29,049,,67,84,014,25,68,36,235,,74,01,327,19*6C.
$GLGSV,3,2,10,75,15,014,22,76,13,063,,81,10,160,,82,57,181,18*66.
$GLGSV,3,3,10,83,56,310,33,84,05,330,*67.
$GNGLL,5306.15373,N,04458.58664,E,201236.00,A,A*74.
$GNTXT,01,01,01,MSAMB,$GNRMC,201237.00,A,5306.15387,N,04458.58663,E,0.138,,250517,,,A*6E.
$GNVTG,,T,,M,0.138,N,0.256,K,A*36.
$GNGGA,201237.00,5306.15387,N,04458.58663,E,1,12,0.79,158.1,M,2.3,M,,*7D.
$GNGSA,A,3,01,10,32,08,11,24,18,27,28,21,22,,1.30,0.79,1.03*18.
$GNGSA,A,3,83,67,,,,,,,,,,,1.30,0.79,1.03*18.
$GPGSV,3,1,12,01,17,300,29,08,48,252,34,10,66,073,12,11,32,300,31*77.
$GPGSV,3,2,12,14,38,177,20,18,38,078,24,21,09,126,18,22,12,256,33*79.
$GPGSV,3,3,12,24,19,056,22,27,34,205,16,28,11,331,32,32,55,158,24*74.
$GLGSV,3,1,10,66,29,049,,67,84,014,25,68,36,235,,74,01,327,18*6D.
$GLGSV,3,2,10,75,15,014,23,76,13,063,,81,10,160,,82,57,181,17*68.
$GLGSV,3,3,10,83,56,310,33,84,05,330,*67.
$GNGLL,5306.15387,N,04458.58663,E,201237.00,A,A*79.
$GNTXT,01,01,01,MSAMB,$GNTXT,01,01,01,MSAMB,$GNTXT,01,01,01,MSAMB,$GNTXT,01,01,01,MSAMB,$GNRMC,201238.00,A,5306.15382,N,04458.58678,E,0.159,,250517,,,A*69.
$GNVTG,,T,,M,0.159,N,0.294,K,A*3F.
$GNGGA,201238.00,5306.15382,N,04458.58678,E,1,12,0.92,157.6,M,2.3,M,,*70.
$GNGSA,A,3,01,10,08,11,24,18,27,28,21,22,,,1.38,0.92,1.03*14.
$GNGSA,A,3,83,67,,,,,,,,,,,1.38,0.92,1.03*15.
$GPGSV,3,1,12,01,17,300,29,08,48,252,34,10,66,073,12,11,32,300,31*77.
$GPGSV,3,2,12,14,38,177,19,18,38,078,24,21,09,126,18,22,12,256,33*73.
$GPGSV,3,3,12,24,19,056,22,27,34,205,15,28,11,331,32,32,55,158,22*71.
$GLGSV,3,1,10,66,29,049,,67,84,014,25,68,36,235,,74,01,327,17*62.
$GLGSV,3,2,10,75,15,014,22,76,13,063,,81,10,160,,82,57,181,15*6B.
$GLGSV,3,3,10,83,56,310,33,84,05,330,*67.
$GNGLL,5306.15382,N,04458.58678,E,201238.00,A,A*79.
$GNTXT,01,01,01,MSAMB,$GNRMC,201239.00,A,5306.15388,N,04458.58675,E,0.141,,250517,,,A*66.
$GNVTG,,T,,M,0.141,N,0.260,K,A*3D.
$GNGGA,201239.00,5306.15388,N,04458.58675,E,1,12,0.92,157.7,M,2.3,M,,*77.
$GNGSA,A,3,01,10,32,08,11,24,18,27,28,21,22,,1.38,0.92,1.03*15.
$GNGSA,A,3,82,83,67,,,,,,,,,,1.38,0.92,1.03*1F.
$GPGSV,3,1,12,01,17,300,29,08,48,252,34,10,66,073,12,11,32,300,31*77.
$GPGSV,3,2,12,14,38,177,19,18,38,078,24,21,09,126,18,22,12,256,33*73.
$GPGSV,3,3,12,24,19,056,23,27,34,205,15,28,11,331,32,32,55,158,22*70.
$GLGSV,3,1,10,66,29,049,,67,84,014,25,68,36,235,,74,01,327,18*6D.
$GLGSV,3,2,10,75,15,014,23,76,13,063,,81,10,160,,82,57,181,13*6C.
$GLGSV,3,3,10,83,56,310,33,84,05,330,*67.
$GNGLL,5306.15388,N,04458.58675,E,201239.00,A,A*7F.
$GNRMC,201240.00,A,5306.15390,N,04458.58693,E,0.319,,250517,,,A*66.
$GNVTG,,T,,M,0.319,N,0.591,K,A*3B.
$GNGGA,201240.00,5306.15390,N,04458.58693,E,1,12,0.92,157.6,M,2.3,M,,*79.
$GNGSA,A,3,01,10,32,08,11,24,18,27,28,21,22,,1.46,0.92,1.13*1D.
$GNGSA,A,3,83,67,,,,,,,,,,,1.46,0.92,1.13*1D.
$GPGSV,3,1,12,01,17,300,29,08,48,252,34,10,66,073,12,11,32,300,31*77.
$GPGSV,3,2,12,14,38,177,18,18,38,078,25,21,09,126,18,22,12,256,33*73.
$GPGSV,3,3,12,24,19,056,22,27,34,205,16,28,11,331,32,32,56,158,22*71.
$GLGSV,3,1,10,66,29,049,,67,84,014,25,68,36,235,,74,01,327,17*62.
$GLGSV,3,2,10,75,15,014,23,76,13,063,,81,10,160,,82,57,181,*6E.
$GLGSV,3,3,10,83,56,310,29,84,05,330,*6C.
$GNGLL,5306.15390,N,04458.58693,E,201240.00,A,A*70.
$GNTXT,01,01,01,MSAMB,$GNRMC,201241.00,A,5306.15403,N,04458.58698,E,0.161,,250517,,,A*6C.
$GNVTG,,T,,M,0.161,N,0.297,K,A*37.
$GNGGA,201241.00,5306.15403,N,04458.58698,E,1,12,0.85,157.6,M,2.3,M,,*78.
$GNGSA,A,3,01,10,32,08,11,24,18,27,28,21,22,,1.32,0.85,1.00*1A.
$GNGSA,A,3,83,67,,,,,,,,,,,1.32,0.85,1.00*1A.
$GPGSV,3,1,12,01,17,300,28,08,48,252,34,10,66,073,12,11,32,300,31*76.
$GPGSV,3,2,12,14,38,177,17,18,38,078,24,21,09,126,18,22,12,256,33*7D.
$GPGSV,3,3,12,24,19,056,23,27,34,205,17,28,11,331,32,32,56,158,24*77.
$GLGSV,3,1,10,66,29,049,20,67,84,014,25,68,36,235,,74,01,327,16*61.
$GLGSV,3,2,10,75,15,014,22,76,13,063,,81,10,160,,82,57,181,19*67.
$GLGSV,3,3,10,83,56,310,33,84,05,330,*67.
$GNGLL,5306.15403,N,04458.58698,E,201241.00,A,A*77.
$GNRMC,201242.00,A,5306.15417,N,04458.58687,E,0.311,,250517,,,A*61.
$GNVTG,,T,,M,0.311,N,0.575,K,A*39.
$GNGGA,201242.00,5306.15417,N,04458.58687,E,1,12,0.85,157.4,M,2.3,M,,*72.
$GNGSA,A,3,01,10,32,08,11,24,18,27,28,21,22,,1.32,0.85,1.00*1A.
$GNGSA,A,3,83,67,,,,,,,,,,,1.32,0.85,1.00*1A.
$GPGSV,3,1,12,01,17,300,28,08,48,252,34,10,66,073,12,11,32,300,32*75.
$GPGSV,3,2,12,14,38,177,17,18,38,078,24,21,09,126,19,22,12,256,33*7C.
$GPGSV,3,3,12,24,19,056,23,27,34,205,16,28,11,331,32,32,56,158,27*75.
$GLGSV,3,1,10,66,29,049,19,67,84,014,25,68,36,235,19,74,01,327,16*63.
$GLGSV,3,2,10,75,15,014,22,76,13,063,,81,10,160,,82,57,181,19*67.
$GLGSV,3,3,10,83,56,310,32,84,05,330,*66.
$GNGLL,5306.15417,N,04458.58687,E,201242.00,A,A*7F.
$GNTXT,01,01,01,MSAMB,$GNRMC,201243.00,A,5306.15433,N,04458.58662,E,0.245,,250517,,,A*6D.
$GNVTG,,T,,M,0.245,N,0.453,K,A*3C.
$GNGGA,201243.00,5306.15433,N,04458.58662,E,1,12,0.86,157.4,M,2.3,M,,*7D.
$GNGSA,A,3,01,10,32,08,11,24,18,27,28,21,22,,1.38,0.86,1.08*1B.
$GNGSA,A,3,83,67,,,,,,,,,,,1.38,0.86,1.08*1B.
$GPGSV,3,1,12,01,17,300,28,08,48,252,34,10,66,073,09,11,32,300,32*7F.
$GPGSV,3,2,12,14,38,177,16,18,38,078,24,21,09,126,18,22,12,256,33*7C.
$GPGSV,3,3,12,24,19,056,25,27,34,205,15,28,11,331,32,32,56,158,29*7E.
$GLGSV,3,1,10,66,29,049,20,67,84,014,25,68,36,235,19,74,01,327,16*69.
$GLGSV,3,2,10,75,15,014,22,76,13,063,,81,10,160,,82,57,181,18*66.
$GLGSV,3,3,10,83,56,310,33,84,05,330,*67.
$GNGLL,5306.15433,N,04458.58662,E,201243.00,A,A*73.
$GNTXT,01,01,01,MSAMB,$GNTXT,01,01,01,MSAMB,$GNRMC,201244.00,A,5306.15455,N,04458.58637,E,0.052,,250517,,,A*6E.
$GNVTG,,T,,M,0.052,N,0.096,K,A*35.
$GNGGA,201244.00,5306.15455,N,04458.58637,E,1,12,0.85,157.2,M,2.3,M,,*7F.
$GNGSA,A,3,01,10,32,08,11,24,18,27,28,21,22,,1.32,0.85,1.00*1A.
$GNGSA,A,3,83,67,,,,,,,,,,,1.32,0.85,1.00*1A.
$GPGSV,3,1,12,01,17,300,29,08,48,252,34,10,66,073,09,11,32,300,33*7F.
$GPGSV,3,2,12,14,38,177,15,18,38,078,23,21,09,126,18,22,12,256,33*78.
$GPGSV,3,3,12,24,19,056,25,27,34,205,16,28,11,331,31,32,56,158,31*77.
$GLGSV,3,1,10,66,29,049,20,67,84,014,25,68,36,235,17,74,01,327,*60.
$GLGSV,3,2,10,75,15,014,22,76,13,063,,81,10,160,,82,57,181,18*66.
$GLGSV,3,3,10,83,56,310,32,84,05,330,*66.
$GNGLL,5306.15455,N,04458.58637,E,201244.00,A,A*74.
$GNTXT,01,01,01,MSAMB,$GNRMC,201245.00,A,5306.15474,N,04458.58608,E,0.047,,250517,,,A*64.
$GNVTG,,T,,M,0.047,N,0.087,K,A*31.
$GNGGA,201245.00,5306.15474,N,04458.58608,E,1,12,0.85,157.2,M,2.3,M,,*71.
$GNGSA,A,3,01,10,32,08,11,24,18,27,28,21,22,,1.32,0.85,1.00*1A.
$GNGSA,A,3,82,83,67,,,,,,,,,,1.32,0.85,1.00*10.
$GPGSV,3,1,12,01,17,300,28,08,48,252,33,10,66,073,09,11,32,300,33*79.
$GPGSV,3,2,12,14,38,177,14,18,38,078,23,21,09,126,18,22,12,256,33*79.
$GPGSV,3,3,12,24,19,056,26,27,34,205,17,28,11,331,32,32,56,158,32*75.
$GLGSV,3,1,10,66,29,049,20,67,84,014,25,68,36,235,17,74,01,327,*60.
$GLGSV,3,2,10,75,15,014,22,76,13,063,,81,10,160,,82,57,181,17*69.
$GLGSV,3,3,10,83,56,310,32,84,05,330,*66.
$GNGLL,5306.15474,N,04458.58608,E,201245.00,A,A*7A.
$GNRMC,201246.00,A,5306.15471,N,04458.58614,E,0.122,,250517,,,A*6D.
$GNVTG,,T,,M,0.122,N,0.226,K,A*3A.
$GNGGA,201246.00,5306.15471,N,04458.58614,E,1,12,0.85,157.3,M,2.3,M,,*7B.
$GNGSA,A,3,01,10,32,08,11,24,18,27,28,21,22,,1.37,0.85,1.08*17.
$GNGSA,A,3,82,83,67,,,,,,,,,,1.37,0.85,1.08*1D.
$GPGSV,3,1,12,01,17,300,28,08,48,252,33,10,66,073,09,11,32,300,33*79.
$GPGSV,3,2,12,14,38,177,15,18,38,078,23,21,09,126,19,22,12,256,33*79.
$GPGSV,3,3,12,24,19,056,25,27,34,205,16,28,11,331,32,32,56,158,33*76.
$GLGSV,3,1,10,66,29,049,21,67,84,014,24,68,36,235,15,74,01,327,18*6B.
$GLGSV,3,2,10,75,15,014,21,76,13,063,,81,10,160,,82,57,181,16*6B.
$GLGSV,3,3,10,83,56,310,32,84,05,330,*66.
$GNGLL,5306.15471,N,04458.58614,E,201246.00,A,A*71.
$GNRMC,201247.00,A,5306.15471,N,04458.58614,E,0.104,,250517,,,A*68.
$GNVTG,,T,,M,0.104,N,0.192,K,A*32.
$GNGGA,201247.00,5306.15471,N,04458.58614,E,1,12,0.85,157.2,M,2.3,M,,*7B.
$GNGSA,A,3,01,10,32,08,11,24,18,27,28,21,22,,1.32,0.85,1.00*1A.
$GNGSA,A,3,82,83,67,,,,,,,,,,1.32,0.85,1.00*10.
$GPGSV,3,1,12,01,17,300,28,08,48,252,33,10,66,073,09,11,32,300,34*7E.
$GPGSV,3,2,12,14,38,177,17,18,38,078,23,21,09,126,18,22,12,256,33*7A.
$GPGSV,3,3,12,24,19,056,26,27,34,205,15,28,11,331,32,32,56,158,33*76.
$GLGSV,3,1,10,66,29,049,21,67,84,014,24,68,36,235,15,74,01,327,*62.
$GLGSV,3,2,10,75,15,014,21,76,13,063,,81,10,160,,82,57,181,15*68.
$GLGSV,3,3,10,83,56,310,33,84,05,330,*67.
$GNGLL,5306.15471,N,04458.58614,E,201247.00,A,A*70.
$GNRMC,201248.00,A,5306.15473,N,04458.58616,E,0.027,,250517,,,A*67.
$GNVTG,,T,,M,0.027,N,0.050,K,A*3D.
$GNGGA,201248.00,5306.15473,N,04458.58616,E,1,12,0.85,157.2,M,2.3,M,,*74.
$GNGSA,A,3,01,10,32,08,11,24,18,27,28,21,22,,1.32,0.85,1.00*1A.
$GNGSA,A,3,82,83,67,,,,,,,,,,1.32,0.85,1.00*10.
$GPGSV,3,1,12,01,17,300,28,08,48,252,33,10,66,073,09,11,32,300,34*7E.
$GPGSV,3,2,12,14,38,177,17,18,38,078,23,21,09,126,19,22,12,256,33*7B.
$GPGSV,3,3,12,24,19,056,26,27,34,205,14,28,11,331,32,32,56,158,34*70.
$GLGSV,3,1,10,66,29,049,20,67,84,014,24,68,36,235,15,74,01,327,19*6B.
$GLGSV,3,2,10,75,15,014,21,76,13,063,,81,10,160,,82,57,181,13*6E.
$GLGSV,3,3,10,83,56,310,33,84,05,330,*67.
$GNGLL,5306.15473,N,04458.58616,E,201248.00,A,A*7F.
$GNTXT,01,01,01,MSAMB,$GNRMC,201249.00,A,5306.15484,N,04458.58602,E,0.090,,250517,,,A*67.
$GNVTG,,T,,M,0.090,N,0.167,K,A*34.
$GNGGA,201249.00,5306.15484,N,04458.58602,E,1,12,0.86,157.3,M,2.3,M,,*7A.
$GNGSA,A,3,01,32,08,11,24,18,27,28,21,22,,,1.38,0.86,1.08*1A.
$GNGSA,A,3,82,83,67,,,,,,,,,,1.38,0.86,1.08*11.
$GPGSV,3,1,12,01,17,300,28,08,48,252,32,10,66,073,,11,32,300,33*71.
$GPGSV,3,2,12,14,38,177,16,18,38,078,23,21,09,126,19,22,12,256,32*7B.
$GPGSV,3,3,12,24,19,056,26,27,34,205,12,28,11,331,32,32,56,158,34*76.
$GLGSV,3,1,10,66,29,049,20,67,84,014,24,68,36,235,15,74,01,327,19*6B.
$GLGSV,3,2,10,75,15,014,22,76,13,063,,81,10,160,,82,57,181,12*6C.
$GLGSV,3,3,10,83,56,310,33,84,05,330,*67.
$GNGLL,5306.15484,N,04458.58602,E,201249.00,A,A*73.
$GNTXT,01,01,01,MSAMB,$GNTXT,01,01,01,MSAMB,$GNTXT,01,01,01,MSAMB,$GNRMC,201250.00,A,5306.15493,N,04458.58568,E,0.159,,250517,,,A*62.
$GNVTG,,T,,M,0.159,N,0.294,K,A*3F.
$GNGGA,201250.00,5306.15493,N,04458.58568,E,1,12,0.82,157.2,M,2.3,M,,*7E.
$GNGSA,A,3,01,32,08,11,24,18,27,28,21,22,,,1.33,0.82,1.05*18.
$GNGSA,A,3,82,83,67,,,,,,,,,,1.33,0.82,1.05*13.
$GPGSV,3,1,12,01,17,300,27,08,48,252,31,10,66,073,,11,32,300,33*7D.
$GPGSV,3,2,12,14,38,177,16,18,38,078,23,21,09,126,19,22,12,256,33*7A.
$GPGSV,3,3,12,24,19,056,26,27,34,205,13,28,11,331,32,32,56,158,34*77.
$GLGSV,3,1,10,66,29,049,20,67,84,014,24,68,36,235,16,74,01,327,17*66.
$GLGSV,3,2,10,75,15,014,22,76,13,063,,81,10,160,,82,57,181,12*6C.
$GLGSV,3,3,10,83,56,310,33,84,05,330,*67.
$GNGLL,5306.15493,N,04458.58568,E,201250.00,A,A*72.
$GNTXT,01,01,01,MSAMB,$GNRMC,201251.00,A,5306.15516,N,04458.58524,E,0.334,,250517,,,A*6E.
$GNVTG,,T,,M,0.334,N,0.619,K,A*37.
$GNGGA,201251.00,5306.15516,N,04458.58524,E,1,12,0.86,157.4,M,2.3,M,,*79.
$GNGSA,A,3,01,32,08,11,24,18,27,28,21,22,,,1.38,0.86,1.08*1A.
$GNGSA,A,3,82,83,67,,,,,,,,,,1.38,0.86,1.08*11.
$GPGSV,3,1,12,01,17,300,26,08,48,252,31,10,66,073,,11,32,300,33*7C.
$GPGSV,3,2,12,14,38,177,14,18,38,078,23,21,09,126,19,22,12,256,32*79.
$GPGSV,3,3,12,24,19,056,26,27,34,205,13,28,11,331,32,32,56,158,34*77.
$GLGSV,3,1,10,66,29,049,22,67,84,014,25,68,36,235,17,74,01,327,18*6B.
$GLGSV,3,2,10,75,15,014,23,76,13,063,,81,10,160,,82,57,181,13*6C.
$GLGSV,3,3,10,83,56,310,33,84,05,330,*67.
$GNGLL,5306.15516,N,04458.58524,E,201251.00,A,A*77.
$GNRMC,201252.00,A,5306.15527,N,04458.58504,E,0.056,,250517,,,A*6A.
$GNVTG,,T,,M,0.056,N,0.103,K,A*3C.
$GNGGA,201252.00,5306.15527,N,04458.58504,E,1,12,0.86,157.3,M,2.3,M,,*7D.
$GNGSA,A,3,01,32,08,11,24,18,27,28,21,22,,,1.38,0.86,1.08*1A.
$GNGSA,A,3,83,67,,,,,,,,,,,1.38,0.86,1.08*1B.
$GPGSV,3,1,12,01,17,300,27,08,48,252,30,10,66,073,21,11,32,300,33*7F.
$GPGSV,3,2,12,14,38,177,11,18,38,078,23,21,09,126,18,22,12,256,33*7C.
$GPGSV,3,3,12,24,19,056,25,27,34,205,11,28,11,331,31,32,56,158,33*72.
$GLGSV,3,1,10,66,29,049,21,67,84,014,25,68,36,235,19,74,01,327,18*66.
$GLGSV,3,2,10,75,15,014,23,76,13,063,,81,10,160,,82,57,181,*6E.
$GLGSV,3,3,10,83,56,310,32,84,05,330,*66.
$GNGLL,5306.15527,N,04458.58504,E,201252.00,A,A*74.
$GNRMC,201253.00,A,5306.15541,N,04458.58457,E,0.117,,250517,,,A*68.
$GNVTG,,T,,M,0.117,N,0.216,K,A*3F.
$GNGGA,201253.00,5306.15541,N,04458.58457,E,1,11,0.86,157.4,M,2.3,M,,*7F.
$GNGSA,A,3,01,32,08,11,24,18,28,21,22,,,,1.38,0.86,1.08*1F.
$GNGSA,A,3,83,67,,,,,,,,,,,1.38,0.86,1.08*1B.
$GPGSV,3,1,12,01,17,300,27,08,48,252,30,10,66,073,21,11,32,300,33*7F.
$GPGSV,3,2,12,14,38,177,10,18,38,078,23,21,09,126,18,22,12,256,33*7D.
$GPGSV,3,3,12,24,19,056,25,27,34,205,09,28,11,331,31,32,56,158,33*7B.
$GLGSV,3,1,10,66,28,049,21,67,84,014,25,68,36,235,19,74,01,327,18*67.
$GLGSV,3,2,10,75,15,014,23,76,13,063,,81,10,160,,82,57,181,*6E.
$GLGSV,3,3,10,83,56,310,32,84,05,330,*66.
$GNGLL,5306.15541,N,04458.58457,E,201253.00,A,A*72.
$GNRMC,201254.00,A,5306.15550,N,04458.58428,E,0.016,,250517,,,A*67.
$GNVTG,,T,,M,0.016,N,0.030,K,A*39.
$GNGGA,201254.00,5306.15550,N,04458.58428,E,1,11,0.86,157.4,M,2.3,M,,*70.
$GNGSA,A,3,01,32,08,11,24,18,28,21,22,,,,1.38,0.86,1.08*1F.
$GNGSA,A,3,83,67,,,,,,,,,,,1.38,0.86,1.08*1B.
$GPGSV,3,1,12,01,17,300,27,08,48,252,29,10,66,073,23,11,32,300,33*75.
$GPGSV,3,2,12,14,38,177,09,18,38,078,23,21,09,126,17,22,12,256,33*7A.
$GPGSV,3,3,12,24,19,056,25,27,34,205,08,28,11,331,31,32,56,158,32*7B.
$GLGSV,3,1,10,66,28,049,20,67,83,017,25,68,36,235,18,74,01,327,17*6C.
$GLGSV,3,2,10,75,15,014,22,76,13,063,,81,10,160,,82,57,181,*6F.
$GLGSV,3,3,10,83,56,310,32,84,05,330,*66.
$GNGLL,5306.15550,N,04458.58428,E,201254.00,A,A*7D.
$GNTXT,01,01,01,MSAMB,$GNRMC,201255.00,A,5306.15560,N,04458.58403,E,0.047,,250517,,,A*68.
$GNVTG,,T,,M,0.047,N,0.088,K,A*3E.
$GNGGA,201255.00,5306.15560,N,04458.58403,E,1,12,0.86,157.6,M,2.3,M,,*7A.
$GNGSA,A,3,01,10,32,08,11,24,18,28,21,22,,,1.38,0.86,1.08*1E.
$GNGSA,A,3,83,67,,,,,,,,,,,1.38,0.86,1.08*1B.
$GPGSV,3,1,12,01,17,300,28,08,48,252,28,10,66,073,25,11,32,300,33*7D.
$GPGSV,3,2,12,14,38,177,09,18,38,078,23,21,09,126,17,22,12,256,33*7A.
$GPGSV,3,3,12,24,19,056,25,27,34,205,,28,11,331,31,32,56,158,31*70.
$GLGSV,3,1,10,66,28,049,20,67,83,017,25,68,37,235,17,74,01,327,17*62.
$GLGSV,3,2,10,75,15,014,22,76,13,063,,81,10,160,,82,57,181,09*66.
$GLGSV,3,3,10,83,56,310,32,84,05,330,*66.
$GNGLL,5306.15560,N,04458.58403,E,201255.00,A,A*76.
$GNTXT,01,01,01,MSAMB,$GNTXT,01,01,01,MSAMB,$GNTXT,01,01,01,MSAMB,$GNTXT,01,01,01,MSAMB,$GNRMC,201256.00,A,5306.15551,N,04458.58391,E,0.095,,250517,,,A*6A.
$GNVTG,,T,,M,0.095,N,0.175,K,A*32.
$GNGGA,201256.00,5306.15551,N,04458.58391,E,1,11,0.92,157.7,M,2.3,M,,*70.
$GNGSA,A,3,01,10,08,11,24,18,28,21,22,,,,1.38,0.92,1.03*11.
$GNGSA,A,3,83,67,,,,,,,,,,,1.38,0.92,1.03*15.
$GPGSV,3,1,12,01,17,300,28,08,48,252,27,10,66,073,25,11,32,300,33*72.
$GPGSV,3,2,12,14,38,177,,18,38,078,25,21,09,126,17,22,12,256,33*75.
$GPGSV,3,3,12,24,19,056,25,27,34,205,,28,11,331,31,32,56,158,30*71.
$GLGSV,3,1,10,66,28,049,20,67,83,017,24,68,37,235,16,74,01,327,17*62.
$GLGSV,3,2,10,75,15,014,21,76,13,063,,81,10,160,,82,57,181,*6C.
$GLGSV,3,3,10,83,56,310,31,84,05,330,*65.
$GNGLL,5306.15551,N,04458.58391,E,201256.00,A,A*7B.
$GNRMC,201257.00,A,5306.15539,N,04458.58390,E,0.188,,250517,,,A*69.
$GNVTG,,T,,M,0.188,N,0.348,K,A*33.
$GNGGA,201257.00,5306.15539,N,04458.58390,E,1,12,1.24,158.0,M,2.3,M,,*79.
$GNGSA,A,3,01,10,32,08,11,24,18,28,21,22,,,1.85,1.24,1.37*1D.
$GNGSA,A,3,83,67,,,,,,,,,,,1.85,1.24,1.37*18.
$GPGSV,3,1,12,01,17,300,29,08,48,252,27,10,66,073,27,11,32,300,33*71.
$GPGSV,3,2,12,14,38,177,,18,38,078,25,21,09,126,18,22,12,256,33*7A.
$GPGSV,3,3,12,24,19,056,25,27,34,205,,28,11,331,31,32,56,158,29*79.
$GLGSV,3,1,10,66,28,049,20,67,83,017,25,68,37,235,15,74,01,327,18*6F.
$GLGSV,3,2,10,75,15,014,21,76,13,063,,81,10,160,,82,57,181,*6C.
$GLGSV,3,3,10,83,56,310,31,84,05,330,*65.
$GNGLL,5306.15539,N,04458.58390,E,201257.00,A,A*75.
$GNRMC,201258.00,A,5306.15538,N,04458.58364,E,0.044,,250517,,,A*6D.
$GNVTG,,T,,M,0.044,N,0.081,K,A*34.
$GNGGA,201258.00,5306.15538,N,04458.58364,E,1,12,1.05,158.1,M,2.3,M,,*7E.
$GNGSA,A,3,01,10,32,08,11,24,18,28,21,22,,,1.67,1.05,1.30*15.
$GNGSA,A,3,83,67,,,,,,,,,,,1.67,1.05,1.30*10.
$GPGSV,3,1,12,01,17,300,29,08,48,252,27,10,66,073,27,11,32,300,33*71.
$GPGSV,3,2,12,14,38,177,,18,38,078,26,21,09,126,19,22,12,256,33*78.
$GPGSV,3,3,12,24,19,056,25,27,34,205,,28,11,331,31,32,56,158,28*78.
$GLGSV,3,1,10,66,28,049,19,67,83,017,24,68,37,235,16,74,01,327,17*68.
$GLGSV,3,2,10,75,15,014,21,76,13,063,,81,10,160,,82,57,181,09*65.
$GLGSV,3,3,10,83,56,310,31,84,05,330,*65.
$GNGLL,5306.15538,N,04458.58364,E,201258.00,A,A*70.
$GNTXT,01,01,01,MSAMB,$GNRMC,201259.00,A,5306.15539,N,04458.58354,E,0.012,,250517,,,A*6D.
$GNVTG,,T,,M,0.012,N,0.022,K,A*3E.
$GNGGA,201259.00,5306.15539,N,04458.58354,E,1,12,1.34,158.3,M,2.3,M,,*7D.
$GNGSA,A,3,01,10,32,08,11,24,18,28,21,22,,,1.88,1.34,1.32*14.
$GNGSA,A,3,83,67,,,,,,,,,,,1.88,1.34,1.32*11.
$GPGSV,3,1,12,01,17,300,30,08,48,252,26,10,66,073,27,11,32,300,33*78.
$GPGSV,3,2,12,14,38,177,,18,38,078,26,21,09,126,20,22,12,256,33*72.
$GPGSV,3,3,12,24,19,056,24,27,34,205,,28,11,331,31,32,56,158,27*76.
$GLGSV,3,1,10,66,28,049,19,67,83,017,25,68,37,235,17,74,01,327,16*69.
$GLGSV,3,2,10,75,15,014,20,76,13,063,,81,10,160,,82,57,181,14*68.
$GLGSV,3,3,10,83,56,310,31,84,05,330,*65.
$GNGLL,5306.15539,N,04458.58354,E,201259.00,A,A*73.
$GNRMC,201300.00,A,5306.15532,N,04458.58331,E,0.148,,250517,,,A*66.
$GNVTG,,T,,M,0.148,N,0.274,K,A*31.
$GNGGA,201300.00,5306.15532,N,04458.58331,E,1,12,1.23,158.4,M,2.3,M,,*79.
$GNGSA,A,3,01,10,32,08,11,24,18,28,21,22,,,1.80,1.23,1.31*19.
$GNGSA,A,3,83,67,,,,,,,,,,,1.80,1.23,1.31*1C.
$GPGSV,3,1,12,01,17,300,30,08,48,252,26,10,66,073,27,11,32,300,33*78.
$GPGSV,3,2,12,14,38,177,,18,38,078,26,21,09,126,19,22,12,256,33*78.
$GPGSV,3,3,12,24,19,056,24,27,34,205,,28,11,331,31,32,56,158,26*77.
$GLGSV,3,1,10,66,28,049,19,67,83,017,25,68,37,235,17,74,01,327,15*6A.
$GLGSV,3,2,10,75,15,014,20,76,13,063,,81,10,160,,82,57,181,17*6B.
$GLGSV,3,3,10,83,56,310,31,84,05,330,*65.
$GNGLL,5306.15532,N,04458.58331,E,201300.00,A,A*76.
$GNRMC,201301.00,A,5306.15523,N,04458.58316,E,0.244,,250517,,,A*6D.
$GNVTG,,T,,M,0.244,N,0.452,K,A*3C.
$GNGGA,201301.00,5306.15523,N,04458.58316,E,1,12,1.23,158.6,M,2.3,M,,*7F.
$GNGSA,A,3,01,10,32,08,11,24,18,28,21,22,,,1.80,1.23,1.31*19.
$GNGSA,A,3,82,83,67,,,,,,,,,,1.80,1.23,1.31*16.
$GPGSV,3,1,12,01,17,300,30,08,48,252,27,10,66,073,27,11,32,300,33*79.
$GPGSV,3,2,12,14,38,177,,18,38,078,26,21,09,126,19,22,12,256,32*79.
$GPGSV,3,3,12,24,19,056,24,27,34,205,,28,11,331,31,32,56,158,25*74.
$GLGSV,3,1,10,66,28,049,19,67,83,017,25,68,37,235,18,74,01,327,14*64.
$GLGSV,3,2,10,75,15,014,20,76,13,063,,81,10,160,,82,57,181,17*6B.
$GLGSV,3,3,10,83,56,310,30,84,05,330,*64.
$GNGLL,5306.15523,N,04458.58316,E,201301.00,A,A*72.
$GNTXT,01,01,01,MSAMB,$GNTXT,01,01,01,MSAMB,$GNTXT,01,01,01,MSAMB,$GNTXT,01,01,01,MSAMB,$GNTXT,01,01,01,MSAMB,$GNRMC,201302.00,A,5306.15514,N,04458.58273,E,0.153,,250517,,,A*6D.
$GNVTG,,T,,M,0.153,N,0.283,K,A*33.
$GNGGA,201302.00,5306.15514,N,04458.58273,E,1,12,1.23,158.7,M,2.3,M,,*7B.
$GNGSA,A,3,01,10,32,08,11,24,18,28,21,22,,,1.80,1.23,1.31*19.
$GNGSA,A,3,82,83,67,,,,,,,,,,1.80,1.23,1.31*16.
$GPGSV,3,1,12,01,17,300,30,08,48,252,28,10,66,073,26,11,32,300,34*70.
$GPGSV,3,2,12,14,38,177,,18,38,078,26,21,09,126,19,22,12,256,33*78.
$GPGSV,3,3,12,24,19,056,24,27,34,205,,28,11,331,31,32,56,158,24*75.
$GLGSV,3,1,10,66,28,049,19,67,83,017,25,68,37,235,19,74,01,327,14*65.
$GLGSV,3,2,10,75,15,014,20,76,13,063,,81,10,160,,82,57,181,18*64.
$GLGSV,3,3,10,83,56,310,30,84,05,330,*64.
$GNGLL,5306.15514,N,04458.58273,E,201302.00,A,A*77.
$GNTXT,01,01,01,MSAMB,$GNRMC,201303.00,A,5306.15510,N,04458.58261,E,0.108,,250517,,,A*65.
$GNVTG,,T,,M,0.108,N,0.201,K,A*37.
$GNGGA,201303.00,5306.15510,N,04458.58261,E,1,12,1.23,158.9,M,2.3,M,,*73.
$GNGSA,A,3,01,10,32,08,11,24,18,28,21,22,,,1.80,1.23,1.31*19.
$GNGSA,A,3,82,83,67,,,,,,,,,,1.80,1.23,1.31*16.
$GPGSV,3,1,12,01,17,300,30,08,48,252,29,10,66,073,25,11,32,300,34*72.
$GPGSV,3,2,12,14,38,177,,18,38,078,26,21,09,126,19,22,12,256,33*78.
$GPGSV,3,3,12,24,19,056,23,27,34,205,,28,11,331,31,32,56,158,24*72.
$GLGSV,3,1,10,66,28,049,19,67,83,017,25,68,37,235,19,74,01,327,12*63.
$GLGSV,3,2,10,75,15,014,20,76,13,063,,81,10,160,,82,57,181,19*65.
$GLGSV,3,3,10,83,56,310,30,84,05,330,*64.
